City_ID,City,Country,Lat,Lng,Max Temp,Humidity,Cloudiness,Wind Speed,Current Description
0,Los Llanos De Aridane,ES,28.6585,-17.9182,70.12,28,0,10.0,clear sky
1,Aasiaat,GL,68.7098,-52.8699,11.26,92,100,5.88,overcast clouds
2,Klaksvik,FO,62.2266,-6.589,49.12,88,67,34.43,light rain
3,Cape Town,ZA,-33.9258,18.4232,61.27,72,0,14.97,clear sky
4,Cherskiy,RU,68.75,161.3,0.68,96,100,4.05,overcast clouds
5,Tasiilaq,GL,65.6145,-37.6368,37.56,85,100,20.89,overcast clouds
6,Aldama,MX,22.9167,-98.0667,57.36,59,99,10.22,overcast clouds
7,Mataura,NZ,-46.1927,168.8643,58.48,90,100,1.92,overcast clouds
8,Dingle,PH,10.9995,122.6711,79.72,88,93,8.21,overcast clouds
9,Zyryanka,RU,65.75,150.85,-9.33,98,100,13.58,light snow
10,Hobart,AU,-42.8794,147.3294,56.05,70,75,4.61,broken clouds
11,Port Lincoln,AU,-34.7333,135.8667,60.75,63,5,17.74,clear sky
12,Bata,GQ,1.8639,9.7658,76.42,89,99,9.78,overcast clouds
13,Albany,US,42.6001,-73.9662,38.62,87,88,10.09,overcast clouds
14,Ushuaia,AR,-54.8,-68.3,53.26,40,75,4.61,broken clouds
15,Rikitea,PF,-23.1203,-134.9692,72.95,91,100,26.53,moderate rain
16,Sorong,ID,-0.8833,131.25,82.18,77,99,2.77,overcast clouds
17,Narsaq,GL,60.9167,-46.05,25.02,92,61,6.31,broken clouds
18,Kassala,SD,15.451,36.4,80.53,35,1,7.09,clear sky
19,Pangkalanbuun,ID,-2.6833,111.6167,76.33,94,100,1.5,overcast clouds
20,Veraval,IN,20.9,70.3667,75.4,47,4,10.31,clear sky
21,Butaritari,KI,3.0707,172.7902,81.07,73,55,18.9,broken clouds
22,Khatanga,RU,71.9667,102.5,-26.12,100,98,4.83,overcast clouds
23,Ponta Do Sol,PT,32.6667,-17.1,70.72,83,76,7.96,broken clouds
24,Cabo San Lucas,MX,22.8909,-109.9124,79.11,65,40,4.61,scattered clouds
25,Inta,RU,66.0317,60.1659,-9.06,88,13,9.89,few clouds
26,Saint-Philippe,RE,-21.3585,55.7679,69.39,77,28,6.42,scattered clouds
27,Kavieng,PG,-2.5744,150.7967,84.4,68,100,8.88,overcast clouds
28,Kamenka,RU,51.3223,42.7678,31.3,99,100,3.83,light snow
29,Arlit,NE,18.7369,7.3853,68.56,19,5,6.96,clear sky
30,Pula,HR,44.8683,13.8481,55.96,94,100,3.44,overcast clouds
31,Port Elizabeth,ZA,-33.918,25.5701,64.31,75,0,10.36,clear sky
32,Torbay,CA,47.6666,-52.7314,33.58,77,100,9.22,overcast clouds
33,Kapaa,US,22.0752,-159.319,80.92,62,75,11.5,broken clouds
34,Bambous Virieux,MU,-20.3428,57.7575,68.25,83,75,2.3,broken clouds
35,Avarua,CK,-21.2078,-159.775,78.85,65,40,13.8,scattered clouds
36,Port Hardy,CA,50.6996,-127.4199,42.98,75,20,0.0,few clouds
37,Comodoro Rivadavia,AR,-45.8667,-67.5,60.66,55,0,20.71,clear sky
38,Yellowknife,CA,62.456,-114.3525,0.55,78,75,4.61,light snow
39,Porto Nacional,BR,-10.7081,-48.4172,80.6,95,99,5.26,overcast clouds
40,Dickinson,US,29.4608,-95.0513,54.16,69,40,8.05,scattered clouds
41,Mahebourg,MU,-20.4081,57.7,68.29,83,75,2.3,broken clouds
42,Busselton,AU,-33.65,115.3333,59.86,71,77,16.17,broken clouds
43,Faanui,PF,-16.4833,-151.75,79.52,75,100,3.49,overcast clouds
44,Te Anau,NZ,-45.4167,167.7167,61.18,74,100,1.77,overcast clouds
45,Saskylakh,RU,71.9167,114.0833,-27.51,99,100,5.17,overcast clouds
46,Mount Gambier,AU,-37.8333,140.7667,57.15,57,57,5.01,broken clouds
47,Esperance,AU,-33.8667,121.9,66.0,58,71,17.6,broken clouds
48,Mar Del Plata,AR,-38.0023,-57.5575,68.95,72,75,3.44,broken clouds
49,Kenai,US,60.5544,-151.2583,34.14,71,0,14.97,clear sky
50,New Norfolk,AU,-42.7826,147.0587,55.71,58,97,1.01,overcast clouds
51,Corning,US,42.1428,-77.0547,38.25,78,100,10.36,overcast clouds
52,Ucluelet,CA,48.9329,-125.5528,49.08,78,19,1.32,few clouds
53,Barrow,US,71.2906,-156.7887,28.42,74,0,17.27,clear sky
54,Bengkulu,ID,-3.8004,102.2655,74.28,95,100,19.46,light rain
55,Tiksi,RU,71.6872,128.8694,-21.41,99,91,4.07,overcast clouds
56,Bilibino,RU,68.0546,166.4372,-7.1,96,95,2.98,overcast clouds
57,Nikolskoye,RU,59.7035,30.7861,31.91,85,100,6.06,overcast clouds
58,Severo-Kurilsk,RU,50.6789,156.125,35.13,64,76,6.98,broken clouds
59,Nanortalik,GL,60.1432,-45.2371,20.08,76,43,21.74,scattered clouds
60,Muroto,JP,33.2833,134.15,61.52,56,97,4.5,overcast clouds
61,Lata,PT,40.1629,-8.3327,63.07,98,100,9.33,light rain
62,Castro,BR,-24.7911,-50.0119,58.39,74,1,5.79,clear sky
63,Talnakh,RU,69.4865,88.3972,-28.16,99,43,4.32,scattered clouds
64,Casselman,CA,45.3168,-75.0826,32.63,86,100,4.61,overcast clouds
65,Innisfail,AU,-17.5333,146.0333,85.82,42,0,5.28,clear sky
66,Bluff,NZ,-46.6,168.3333,58.8,86,100,11.61,overcast clouds
67,Port Dover,CA,42.7834,-80.1997,35.6,91,93,12.28,overcast clouds
68,Tautira,PF,-17.7333,-149.15,77.43,80,93,8.12,overcast clouds
69,Aklavik,CA,68.2191,-135.0107,10.4,85,75,4.61,broken clouds
70,Kodiak,US,57.79,-152.4072,42.31,100,100,16.11,light rain
71,Yatou,CN,37.15,122.3833,53.29,66,0,6.85,clear sky
72,Houma,US,29.5958,-90.7195,48.99,79,100,12.66,overcast clouds
73,Biak,ID,-0.9131,122.8766,80.58,79,100,5.35,overcast clouds
74,Bredasdorp,ZA,-34.5322,20.0403,55.8,69,100,3.85,overcast clouds
75,Souillac,MU,-20.5167,57.5167,68.38,83,75,2.3,broken clouds
76,Hailar,CN,49.2,119.7,20.03,83,82,8.41,broken clouds
77,Laguna,US,38.421,-121.4238,67.68,36,0,3.44,clear sky
78,Fairbanks,US,64.8378,-147.7164,16.09,87,40,0.0,scattered clouds
79,Lagoa,PT,39.05,-27.9833,62.53,72,50,19.75,scattered clouds
80,Vaini,TO,-21.2,-175.2,82.56,74,20,5.75,few clouds
81,Labrea,BR,-7.2586,-64.7981,75.25,93,94,0.67,overcast clouds
82,Menongue,AO,-14.6585,17.691,63.0,89,29,4.59,scattered clouds
83,Chifeng,CN,42.2683,118.9636,29.19,77,4,4.9,clear sky
84,Port Alfred,ZA,-33.5906,26.891,62.19,95,67,3.0,broken clouds
85,Hobyo,SO,5.3505,48.5268,80.64,74,31,13.56,scattered clouds
86,Bud,US,39.447,-86.1758,32.76,68,99,12.88,overcast clouds
87,Berlevag,NO,70.8578,29.0864,42.8,53,80,15.86,broken clouds
88,Masuguru,TZ,-11.3667,38.4167,76.15,72,13,5.17,few clouds
89,Moerai,PF,-22.4333,-151.3333,70.88,65,100,4.36,overcast clouds
90,Skibbereen,IE,51.55,-9.2667,45.1,86,100,8.37,overcast clouds
91,Ouango,CF,4.3133,22.5552,68.5,78,100,0.98,overcast clouds
92,Punta Arenas,CL,-53.15,-70.9167,53.71,47,75,4.61,broken clouds
93,Awbari,LY,26.5921,12.7805,60.49,33,29,5.64,scattered clouds
94,Ulladulla,AU,-35.35,150.4667,59.77,45,21,9.8,few clouds
95,Rio Verde De Mato Grosso,BR,-18.9181,-54.8442,75.15,39,0,6.29,clear sky
96,Choya,RU,52.0108,86.5467,26.67,71,100,3.11,overcast clouds
97,Beringovskiy,RU,63.05,179.3167,31.33,92,100,4.03,overcast clouds
98,Urengoy,RU,65.9667,78.3667,-0.49,96,86,4.81,overcast clouds
99,Tuatapere,NZ,-46.1333,167.6833,60.62,82,100,4.21,overcast clouds
100,Iquique,CL,-20.2208,-70.1431,66.24,73,12,3.22,few clouds
101,Tuktoyaktuk,CA,69.4541,-133.0374,12.2,79,75,11.5,broken clouds
102,Klobuck,PL,50.9008,18.9367,36.05,87,100,12.41,overcast clouds
103,Ahipara,NZ,-35.1667,173.1667,69.28,63,56,8.77,broken clouds
104,Adjumani,UG,3.3779,31.7909,67.82,93,100,2.66,overcast clouds
105,Alice Springs,AU,-23.7,133.8833,69.35,73,40,9.22,scattered clouds
106,Springbok,ZA,-29.6643,17.8865,53.82,79,12,2.68,few clouds
107,Turukhansk,RU,65.8167,87.9833,-37.43,100,88,0.81,overcast clouds
108,Asfi,MA,32.2994,-9.2372,64.47,80,47,1.83,scattered clouds
109,Tupik,RU,54.4253,119.9327,13.84,96,100,1.5,light snow
110,Labuhan,ID,-6.8844,112.2051,81.37,79,100,4.83,overcast clouds
111,Hermanus,ZA,-34.4187,19.2345,52.81,72,95,3.65,overcast clouds
112,Maarianhamina,AX,60.0973,19.9348,33.66,86,100,5.75,overcast clouds
113,Saldanha,ZA,-33.0117,17.9442,55.45,77,70,16.51,broken clouds
114,Carnarvon,AU,-24.8667,113.6333,67.39,58,100,15.28,overcast clouds
115,Upernavik,GL,72.7868,-56.1549,11.21,92,97,12.24,overcast clouds
116,Hualmay,PE,-11.0964,-77.6139,64.74,84,92,9.4,overcast clouds
117,Nizhniy Tsasuchey,RU,50.5167,115.1333,22.69,83,63,10.42,broken clouds
118,Petropavlovsk-Kamchatskiy,RU,53.0452,158.6483,14.59,62,0,6.71,clear sky
119,Geraldton,AU,-28.7667,114.6,64.81,63,75,12.66,broken clouds
120,Plettenberg Bay,ZA,-34.0527,23.3716,60.91,76,97,4.54,overcast clouds
121,Weihai,CN,37.5017,122.1136,52.38,69,0,7.96,clear sky
122,Nome,US,64.5011,-165.4064,31.15,80,100,19.57,overcast clouds
123,Kyle,US,29.9984,-97.8715,53.74,48,24,8.63,few clouds
124,Mikhaylovka,RU,50.06,43.2379,35.78,88,100,3.18,overcast clouds
125,Atuona,PF,-9.8,-139.0333,78.19,75,2,12.57,clear sky
126,San Patricio,US,28.017,-97.5169,51.67,61,100,8.34,overcast clouds
127,Loandjili,CG,-4.7561,11.8578,75.81,81,100,5.26,overcast clouds
128,Norman Wells,CA,65.282,-126.8329,5.04,92,75,0.0,broken clouds
129,Myrtle Beach,US,33.6891,-78.8867,57.09,81,0,8.05,clear sky
130,Longyearbyen,SJ,78.2186,15.6401,22.84,63,20,13.8,few clouds
131,Lima,PE,-12.0432,-77.0282,67.89,77,20,14.97,few clouds
132,Eureka,US,40.8021,-124.1637,60.21,77,3,3.0,clear sky
133,Mokhsogollokh,RU,61.4681,128.9203,-32.31,100,90,3.96,overcast clouds
134,Avera,US,33.194,-82.5271,51.31,48,100,10.94,overcast clouds
135,Nara,JP,34.6851,135.8049,49.5,68,81,2.48,broken clouds
136,Oyem,GA,1.5995,11.5793,67.08,98,100,2.48,overcast clouds
137,Pevek,RU,69.7008,170.3133,6.44,95,100,4.63,light snow
138,Hamilton,US,39.1834,-84.5333,35.94,79,100,11.5,overcast clouds
139,Hilo,US,19.7297,-155.09,79.25,80,75,5.75,light rain
140,Sioux Lookout,CA,50.1001,-91.917,23.07,86,100,2.3,overcast clouds
141,Dikson,RU,73.5069,80.5464,-1.43,97,100,13.53,overcast clouds
142,Emerald,AU,-23.5333,148.1667,76.33,28,59,13.76,broken clouds
143,Hithadhoo,MV,-0.6,73.0833,80.62,79,69,10.63,broken clouds
144,Nouakchott,MR,18.0858,-15.9785,82.33,49,41,10.65,scattered clouds
145,Belaya Gora,RU,68.5333,146.4167,-20.42,98,100,2.48,overcast clouds
146,Redcliffe,AU,-27.2307,153.0973,72.9,35,0,10.36,clear sky
147,Portland,US,45.5234,-122.6762,54.19,55,0,12.66,clear sky
148,Jamestown,US,42.097,-79.2353,35.02,71,100,18.41,overcast clouds
149,Lewistown,US,40.5992,-77.5714,37.26,89,100,5.75,overcast clouds
150,Thompson,CA,55.7435,-97.8558,17.76,86,100,9.22,light snow
151,Rzhev,RU,56.2624,34.3282,25.07,95,96,3.65,overcast clouds
152,Broome,US,42.2506,-75.833,36.68,82,100,11.5,overcast clouds
153,Victoria,HK,22.2855,114.1577,75.38,85,97,10.0,overcast clouds
154,Puerto Ayora,EC,-0.7393,-90.3518,69.55,88,78,7.0,broken clouds
155,Sosva,RU,59.1766,61.8558,-5.37,98,35,0.63,scattered clouds
156,Salamanca,ES,40.8333,-6.0,55.8,95,100,11.7,light rain
157,Arraial Do Cabo,BR,-22.9661,-42.0278,73.36,73,75,12.66,broken clouds
158,Payakumbuh,ID,-0.2202,100.6308,69.31,97,100,3.87,overcast clouds
159,Sao Joao Da Barra,BR,-21.6403,-41.0511,73.49,91,100,16.33,light rain
160,Khorinsk,RU,52.1657,109.7726,16.54,94,24,3.33,few clouds
161,Malanje,AO,-9.5402,16.341,61.84,88,97,2.48,overcast clouds
162,Vestmannaeyjar,IS,63.4427,-20.2734,47.79,86,100,34.87,overcast clouds
163,Goderich,CA,43.7501,-81.7165,34.12,86,89,6.91,snow
164,Yima,CN,34.7381,111.8839,46.54,59,0,1.7,clear sky
165,Loreto,MX,22.2667,-101.9667,75.07,19,20,12.35,few clouds
166,Saint-Georges,GD,12.0564,-61.7485,78.48,94,40,11.5,scattered clouds
167,Nemyriv,UA,48.9708,28.8378,40.71,92,100,6.06,overcast clouds
168,Bethel,US,41.3712,-73.414,44.69,70,75,8.05,broken clouds
169,Shizunai,JP,42.3339,142.3669,40.93,70,20,12.35,few clouds
170,Namatanai,PG,-3.6667,152.4333,84.4,68,100,6.42,overcast clouds
171,Chokurdakh,RU,70.6333,147.9167,-21.23,99,98,4.41,overcast clouds
172,Krasnyy Luch,UA,48.1395,38.9371,37.74,90,100,5.66,light rain
173,Sao Filipe,CV,14.8961,-24.4956,77.68,67,44,2.8,scattered clouds
174,Kruisfontein,ZA,-34.0033,24.7314,60.89,73,76,6.31,broken clouds
175,Mosquera,CO,4.7059,-74.2302,57.29,88,75,2.3,broken clouds
176,Yelan,RU,50.949,43.7378,30.63,98,100,6.51,light snow
177,Xichang,CN,27.8964,102.2634,45.01,82,0,0.45,clear sky
178,Lebu,CL,-37.6167,-73.65,57.99,92,5,8.63,clear sky
179,Nova Vicosa,BR,-17.8919,-39.3719,74.52,91,100,5.61,light rain
180,Nyurba,RU,63.2842,118.3319,1.26,98,100,2.48,overcast clouds
181,Paita,PE,-5.0892,-81.1144,64.67,85,60,16.75,broken clouds
182,Palmer,US,42.1584,-72.3287,42.4,68,40,14.97,scattered clouds
183,Jalu,LY,29.0331,21.5482,62.22,38,0,10.0,clear sky
184,Atasu,KZ,48.6814,71.6433,19.96,92,100,14.16,overcast clouds
185,Ribeira Grande,PT,38.5167,-28.7,62.78,71,66,5.01,broken clouds
186,The Pas,CA,53.8251,-101.2541,23.02,80,100,19.57,light snow
187,East London,ZA,-33.0153,27.9116,65.7,80,84,2.91,broken clouds
188,Meulaboh,ID,4.1363,96.1285,75.18,88,100,3.27,moderate rain
189,Anqing,CN,30.5092,117.0506,55.87,83,100,2.37,overcast clouds
190,Lavrentiya,RU,65.5833,-171.0,33.73,95,88,16.75,overcast clouds
191,Hovd,MN,48.0056,91.6419,27.91,47,79,11.39,broken clouds
192,Byron Bay,AU,-28.65,153.6167,68.7,42,95,13.65,overcast clouds
193,Beroroha,MG,-21.6667,45.1667,74.57,79,8,3.09,clear sky
194,Chilca,PE,-12.5211,-76.7372,63.66,90,99,7.58,overcast clouds
195,Bondo,CD,3.8146,23.6866,68.65,75,98,1.05,overcast clouds
196,Adrar,MR,20.5022,-10.0711,73.85,23,0,10.85,clear sky
197,Provideniya,RU,64.3833,-173.3,35.71,87,100,18.01,fog
198,Isangel,VU,-19.55,169.2667,82.89,64,94,6.8,overcast clouds
199,Marzuq,YE,14.4,46.4667,62.19,62,10,1.66,clear sky
200,Kieta,PG,-6.2167,155.6333,85.24,61,100,4.12,overcast clouds
201,Korsor,DK,55.3299,11.1386,42.98,90,64,31.12,broken clouds
202,Sitka,US,57.0531,-135.33,53.49,66,0,4.61,clear sky
203,Beyneu,KZ,45.3167,55.2,33.67,60,100,17.25,overcast clouds
204,Diamantino,BR,-14.4086,-56.4461,80.74,55,23,3.87,few clouds
205,Mossendjo,CG,-2.9506,12.7261,68.77,100,98,1.54,light rain
206,Vestmanna,FO,62.1564,-7.1664,47.32,81,100,21.85,light rain
207,Riviere-Au-Renard,CA,48.9957,-64.3971,28.69,97,100,10.33,snow
208,Chapais,CA,49.7834,-74.8492,19.18,95,100,5.91,light snow
209,Fochville,ZA,-26.4886,27.4939,68.9,46,29,4.5,scattered clouds
210,Bilma,NE,18.6853,12.9164,66.16,24,2,3.8,clear sky
211,Ust-Maya,RU,60.4167,134.5333,-41.4,99,55,2.42,broken clouds
212,Soverato,IT,38.685,16.5499,57.15,70,85,5.57,overcast clouds
213,Nantucket,US,41.2835,-70.0995,48.25,84,93,26.11,overcast clouds
214,Valparaiso,CL,-33.0393,-71.6273,71.83,79,0,13.8,clear sky
215,Mount Isa,AU,-20.7333,139.5,80.37,22,69,16.11,broken clouds
216,Huarmey,PE,-10.0681,-78.1522,65.35,84,100,8.95,overcast clouds
217,Lasa,IT,46.6166,10.7002,41.88,71,75,2.15,broken clouds
218,Machinga,MW,-15.1685,35.3,70.45,78,13,3.22,light rain
219,Ludvika,SE,60.1496,15.1878,34.34,95,47,3.18,scattered clouds
220,Marsabit,KE,2.3284,37.9899,67.62,67,45,5.55,scattered clouds
221,Progreso,MX,21.2833,-89.6667,80.71,80,7,12.12,clear sky
222,Kostomuksha,RU,64.571,30.5767,26.15,94,88,3.31,overcast clouds
223,Qaanaaq,GL,77.484,-69.3632,-3.93,97,100,3.51,overcast clouds
224,Patacamaya,BO,-17.2333,-67.9167,50.2,49,29,9.22,scattered clouds
225,Chuy,UY,-33.6971,-53.4616,62.22,72,3,5.75,clear sky
226,Katsuura,JP,35.1333,140.3,60.69,70,60,16.62,broken clouds
227,Imbituba,BR,-28.24,-48.6703,65.23,68,0,4.21,clear sky
228,Nacajuca,MX,18.1333,-93.0167,78.85,84,87,6.02,light rain
229,Smithers,CA,54.7804,-127.1743,32.32,80,75,5.75,broken clouds
230,Pundaguitan,PH,6.3711,126.1689,77.7,94,100,20.54,moderate rain
231,General Roca,AR,-39.0333,-67.5833,77.63,24,58,5.28,broken clouds
232,Axim,GH,4.8699,-2.2405,77.7,84,16,6.2,light rain
233,Allende,MX,25.2833,-100.0167,50.67,66,100,5.17,overcast clouds
234,Lodja,CD,-3.4833,23.4333,69.57,89,100,1.95,overcast clouds
235,Loa Janan,ID,-0.583,117.095,78.01,95,100,1.54,overcast clouds
236,Barranca,PE,-10.75,-77.7667,64.15,84,84,8.48,broken clouds
237,Malatya,TR,38.5,38.0,44.65,93,100,2.3,overcast clouds
238,Bathsheba,BB,13.2167,-59.5167,81.21,78,20,14.97,few clouds
239,Xinxiang,CN,35.3089,113.8672,48.92,51,0,2.95,clear sky
240,Cockburn Town,TC,21.4612,-71.1419,82.13,75,5,17.4,clear sky
241,Iqaluit,CA,63.7506,-68.5145,6.53,72,100,4.61,light snow
242,Yuxia,CN,34.0615,108.6291,36.21,71,18,3.15,few clouds
243,Arinos,BR,-15.9169,-46.1056,71.44,88,32,2.28,scattered clouds
244,Ilulissat,GL,69.2167,-51.1,15.82,73,75,8.05,broken clouds
245,Marawi,PH,7.9986,124.2928,69.91,92,100,2.46,moderate rain
246,Hirara,JP,24.8,125.2833,73.67,100,75,8.05,mist
247,Pisco,PE,-13.7,-76.2167,66.25,77,0,18.41,clear sky
248,Jingdezhen,CN,29.2947,117.2079,58.51,93,100,1.16,overcast clouds
249,Juegang,CN,32.3174,121.1855,56.98,85,100,12.12,overcast clouds
250,Cosala,MX,24.4125,-106.6908,73.08,55,68,2.55,broken clouds
251,Aksu,CN,41.1231,80.2644,36.88,46,100,7.43,overcast clouds
252,Batagay-Alyta,RU,67.8006,130.4114,-29.09,92,45,2.8,scattered clouds
253,Kaitangata,NZ,-46.2817,169.8464,57.97,82,100,4.72,overcast clouds
254,Waingapu,ID,-9.6567,120.2641,82.4,75,100,4.18,overcast clouds
255,Maneadero,MX,31.7167,-116.5667,67.1,19,0,8.16,clear sky
256,Saint George,US,37.1041,-113.5841,54.19,26,0,3.44,clear sky
257,Satellite Beach,US,28.1761,-80.5901,79.0,83,0,9.22,clear sky
258,Kultuk,RU,51.7208,103.6956,22.6,83,31,5.66,scattered clouds
259,Turka,UA,49.1541,23.0297,39.15,97,100,3.38,overcast clouds
260,Acarau,BR,-2.8856,-40.12,79.05,73,11,17.76,few clouds
261,Caravelas,BR,-17.7125,-39.2481,74.53,93,100,5.01,light rain
262,Hoquiam,US,46.9809,-123.8893,56.93,61,0,8.05,clear sky
263,Dumai,ID,1.6833,101.45,74.26,92,100,2.86,light rain
264,Gao,ML,16.6362,1.637,69.93,15,72,10.78,broken clouds
265,Araxa,BR,-19.5933,-46.9406,71.56,73,0,4.61,clear sky
266,Blagoyevo,RU,63.3667,47.9167,10.04,96,65,4.05,broken clouds
267,Singleton,AU,-32.5667,151.1833,65.91,54,1,1.54,clear sky
268,Pingliang,CN,35.5392,106.6861,37.81,92,6,5.39,clear sky
269,Avanigadda,IN,16.0215,80.9181,64.8,75,3,5.17,clear sky
270,Solnechnyy,RU,50.7214,136.6319,19.0,73,36,2.71,scattered clouds
271,Beloha,MG,-25.1667,45.05,67.95,88,18,4.0,few clouds
272,Manacapuru,BR,-3.2997,-60.6206,80.69,78,91,4.07,overcast clouds
273,Belmonte,BR,-15.8631,-38.8828,76.59,89,100,7.29,overcast clouds
274,Hambantota,LK,6.1241,81.1185,76.33,81,84,5.75,broken clouds
275,Lincoln,US,40.8,-96.667,30.29,49,0,6.91,clear sky
276,Santa Maria,BR,-29.6842,-53.8069,76.3,47,0,5.75,clear sky
277,Ketchikan,US,55.3422,-131.6461,45.07,93,0,11.5,clear sky
278,Gien,FR,47.6933,2.6309,55.44,76,95,25.1,light rain
279,Nuevo Casas Grandes,MX,30.4167,-107.9167,55.74,33,1,7.0,clear sky
280,Necochea,AR,-38.5473,-58.7368,61.9,92,63,6.31,broken clouds
281,Mehamn,NO,71.0357,27.8492,42.75,39,58,11.5,broken clouds
282,Teguise,ES,29.0605,-13.564,62.82,68,0,0.0,clear sky
283,Sayansk,RU,54.1088,102.1648,21.83,74,73,4.32,broken clouds
284,Yoro,HN,15.1333,-87.1333,81.12,65,40,4.61,scattered clouds
285,Airai,TL,-8.9266,125.4092,68.02,73,100,1.45,overcast clouds
286,Taltal,CL,-25.4,-70.4833,63.63,79,19,2.75,few clouds
287,Griffith,US,41.5284,-87.4237,34.11,94,100,10.36,overcast clouds
288,Nakhon Thai,TH,17.1006,100.8374,73.44,94,39,2.55,scattered clouds
289,Holland,US,42.7875,-86.1089,34.41,93,100,3.0,light snow
290,Grand Forks,US,47.9417,-97.4337,21.13,86,100,5.75,mist
291,Salalah,OM,17.0151,54.0924,73.49,56,0,4.61,clear sky
292,Pimentel,PE,-6.8367,-79.9342,64.69,94,75,18.41,broken clouds
293,Kutum,SD,14.2,24.6667,61.36,29,4,7.65,clear sky
294,Ashqelon,IL,31.6693,34.5715,62.8,64,31,5.59,scattered clouds
295,Newport,GB,51.5877,-2.9984,48.81,89,100,13.56,light rain
296,Erdaojiang,CN,41.7764,126.0319,34.77,59,8,2.53,clear sky
297,Dubbo,AU,-32.25,148.6167,59.13,41,0,8.05,clear sky
298,Margate,GB,51.3813,1.3862,54.9,94,98,4.0,overcast clouds
299,Hopkinsville,US,36.8656,-87.4886,42.75,68,60,9.64,broken clouds
300,Raudeberg,NO,61.9875,5.1352,47.07,40,0,3.76,clear sky
301,Yulara,AU,-25.2406,130.9889,74.25,46,13,18.28,few clouds
302,Cap Malheureux,MU,-19.9842,57.6142,68.47,70,1,5.01,clear sky
303,Clyde River,CA,70.4692,-68.5914,3.43,85,100,21.85,light snow
304,Ebebiyin,GQ,2.1511,11.3353,68.11,99,99,3.51,overcast clouds
305,Santiago Del Estero,AR,-27.7951,-64.2615,90.03,22,1,11.9,clear sky
306,Oranjemund,NA,-28.55,16.4333,59.63,89,18,10.96,few clouds
307,Visnes,NO,59.3556,5.2242,47.21,46,3,26.46,clear sky
308,Sines,PT,37.9562,-8.8698,63.28,95,94,7.0,overcast clouds
309,Georgetown,MY,5.4112,100.3354,78.73,98,20,3.44,few clouds
310,Qasigiannguit,GL,68.8193,-51.1922,16.05,95,100,4.97,overcast clouds
311,Trofors,NO,65.5333,13.4063,21.07,48,12,5.1,few clouds
312,Aurillac,FR,44.9167,2.45,50.88,82,100,2.3,light rain
313,Arica,CL,-18.475,-70.3042,67.55,68,0,6.91,clear sky
314,Ojinaga,MX,29.5667,-104.4167,56.35,41,0,14.97,clear sky
315,Lakes Entrance,AU,-37.8811,147.981,60.17,59,46,10.38,light rain
316,Khonsa,IN,27.0167,95.5667,54.32,85,0,3.42,clear sky
317,Guerrero Negro,MX,27.9769,-114.0611,73.56,28,0,6.26,clear sky
318,Kineta,GR,37.9709,23.2183,64.83,72,46,7.63,scattered clouds
319,Walvis Bay,NA,-22.9575,14.5053,60.1,94,0,11.5,clear sky
320,Zhicheng,CN,30.2956,111.5047,52.59,76,1,0.81,clear sky
321,Almaznyy,RU,48.0448,40.045,38.32,78,100,6.26,light rain
322,Nuuk,GL,64.1835,-51.7216,25.41,74,100,11.5,light snow
323,Hasaki,JP,35.7333,140.8333,50.29,63,53,17.13,broken clouds
324,West Bay,KY,19.3667,-81.4167,82.47,79,20,11.5,few clouds
325,Angoche,MZ,-16.2325,39.9086,76.06,84,22,4.38,light rain
326,Saint-Paul,RE,-21.0096,55.2707,71.69,72,26,0.78,scattered clouds
327,Puerto Madero,MX,14.7208,-92.4215,84.4,84,40,11.5,scattered clouds
328,Chumphon,TH,10.3333,98.8333,70.97,98,98,2.08,overcast clouds
329,Galle,LK,6.0367,80.217,75.67,87,94,4.21,overcast clouds
330,Samarai,PG,-10.6167,150.6667,85.51,72,95,14.54,overcast clouds
331,Hobe Sound,US,27.0595,-80.1364,80.58,80,40,0.0,scattered clouds
332,Pouebo,NC,-20.4,164.5667,82.51,67,93,3.27,overcast clouds
333,Omsukchan,RU,62.5333,155.8,-25.35,97,67,4.05,broken clouds
334,Chaplynka,UA,46.3651,33.5403,48.33,92,77,7.4,broken clouds
335,Sur,OM,22.5667,59.5289,75.52,77,8,3.0,clear sky
336,Lumsden,CA,50.6501,-104.8678,22.01,89,100,18.1,overcast clouds
337,Talaya,RU,61.3833,152.75,-20.43,97,100,1.45,overcast clouds
338,Sangar,RU,63.9242,127.4739,-22.56,84,90,13.69,overcast clouds
339,Bubaque,GW,11.2833,-15.8333,82.53,73,100,8.55,overcast clouds
340,Tessalit,ML,20.1986,1.0114,69.31,15,31,7.4,scattered clouds
341,Bandarbeyla,SO,9.4942,50.8122,77.86,68,14,16.22,few clouds
342,Mbuji-Mayi,CD,-6.15,23.6,68.0,95,100,1.43,overcast clouds
343,Lorengau,PG,-2.0226,147.2712,84.74,58,87,6.13,overcast clouds
344,Karema,TZ,-6.8205,30.4389,70.2,85,68,3.36,moderate rain
345,Ha Giang,VN,22.8333,104.9833,73.31,99,95,1.59,overcast clouds
346,Deputatskiy,RU,69.3,139.9,-27.38,99,97,1.99,overcast clouds
347,Bethanien,NA,-26.502,17.1583,66.58,23,3,2.24,clear sky
348,Vangaindrano,MG,-23.35,47.6,71.98,83,99,4.38,overcast clouds
349,Makakilo City,US,21.3469,-158.0858,82.72,54,100,17.27,overcast clouds
350,Kiama,AU,-34.6833,150.8667,64.38,50,9,12.21,clear sky
351,Jutai,BR,-5.1833,-68.9,75.06,91,75,2.06,broken clouds
352,Iskateley,RU,67.6803,53.1512,7.77,96,72,8.99,broken clouds
353,Toora-Khem,RU,52.4675,96.11,9.28,97,98,1.5,overcast clouds
354,Taoudenni,ML,22.6783,-3.9836,73.36,17,0,8.75,clear sky
355,Turbat,PK,26.0023,63.044,74.73,57,0,3.44,clear sky
356,Wattegama,LK,6.7989,81.4808,70.02,92,92,3.58,overcast clouds
357,Terenos,BR,-20.4422,-54.8603,76.71,43,0,5.75,clear sky
358,Fortuna,US,40.5982,-124.1573,59.94,71,0,9.22,clear sky
359,Boende,CD,-0.2167,20.8667,69.46,99,94,2.39,overcast clouds
360,Uni,RU,57.7535,51.4923,14.49,97,95,5.3,overcast clouds
361,Yining,CN,29.0361,114.5636,57.29,91,100,1.25,overcast clouds
362,Yanam,IN,16.7333,82.2167,65.19,77,45,4.09,scattered clouds
363,Half Moon Bay,US,37.4636,-122.4286,69.71,49,0,12.66,clear sky
364,Ayna,PE,-12.65,-73.9167,61.11,96,99,0.85,overcast clouds
365,Monte Alegre De Minas,BR,-18.8706,-48.8808,76.06,29,0,5.99,clear sky
366,Birao,CF,10.2849,22.7882,69.48,33,99,5.53,overcast clouds
367,Tezu,IN,27.9167,96.1667,59.25,45,1,4.03,clear sky
368,Pyay,MM,18.8167,95.2167,69.96,78,7,5.77,clear sky
369,Dauriya,RU,49.9333,116.8667,12.0,95,78,5.73,broken clouds
370,Inuvik,CA,68.3499,-133.7218,23.76,52,40,10.36,scattered clouds
371,Atbasar,KZ,51.8,68.3333,12.52,93,94,7.27,overcast clouds
372,Terra Santa,BR,-2.1042,-56.4869,82.36,57,78,0.45,broken clouds
373,Amapa,BR,1.0,-52.0,73.6,68,93,3.15,overcast clouds
374,Erzin,TR,36.9559,36.2,58.32,73,85,4.12,overcast clouds
375,Maragogi,BR,-9.0122,-35.2225,76.71,83,43,6.76,scattered clouds
376,Lerwick,GB,60.1545,-1.1494,50.0,90,100,42.77,moderate rain
377,Kaberamaido,UG,1.7389,33.1594,65.82,91,100,2.21,overcast clouds
378,Lahij,YE,13.1667,44.5833,69.37,76,4,3.67,clear sky
379,Tateyama,JP,34.9833,139.8667,55.09,72,38,15.55,scattered clouds
380,Brigantine,US,39.4101,-74.3646,46.0,65,0,16.11,clear sky
381,Lazaro Cardenas,MX,17.9583,-102.2,80.19,79,0,4.85,clear sky
382,Puerto Madryn,AR,-42.7692,-65.0385,63.09,50,1,19.84,clear sky
383,San Vicente,AR,-26.6167,-54.1333,60.98,72,1,2.3,clear sky
384,Cayenne,GF,4.9333,-52.3333,80.64,83,0,2.3,clear sky
385,Sheregesh,RU,52.9209,87.9869,19.96,86,100,7.47,overcast clouds
386,Baykit,RU,61.67,96.37,-6.57,98,100,3.8,overcast clouds
387,Hurghada,EG,27.2574,33.8129,68.04,37,0,10.36,clear sky
388,Oktyabrskoye,RU,43.0645,44.7417,28.54,93,100,4.47,overcast clouds
389,Mackenzie,CA,55.2999,-123.1698,30.42,47,0,6.91,clear sky
390,Porto Uniao,BR,-26.2381,-51.0783,57.67,80,0,1.79,clear sky
391,Daru,PG,-9.0763,143.2092,84.51,76,100,5.82,overcast clouds
392,Pytalovo,RU,57.0679,27.9138,31.15,72,75,5.5,broken clouds
393,Constitucion,CL,-35.3333,-72.4167,58.32,82,43,13.4,scattered clouds
394,Dukat,RU,62.55,155.55,-26.55,97,60,4.05,broken clouds
395,Sharjah,AE,25.3573,55.4033,80.58,78,0,3.44,clear sky
396,Naze,JP,28.3667,129.4833,70.72,69,96,14.03,overcast clouds
397,Qandala,SO,11.472,49.8728,75.76,70,0,6.64,clear sky
398,Saskatoon,CA,52.1168,-106.6345,19.38,73,100,16.11,overcast clouds
399,Tura,IN,25.5198,90.2201,60.03,93,0,3.69,clear sky
400,Vanimo,PG,-2.6741,141.3028,84.65,71,76,4.94,broken clouds
401,Komsomolskiy,UZ,40.4272,71.7189,38.12,81,11,4.61,few clouds
402,Camapua,BR,-19.5314,-54.0439,72.54,48,0,9.24,clear sky
403,Touros,BR,-5.1989,-35.4608,78.93,70,3,13.6,clear sky
404,Ullapool,GB,57.8987,-5.1604,48.34,91,86,3.69,overcast clouds
405,Aleksinac,RS,43.5417,21.7078,53.56,87,100,2.55,light rain
406,Alugan,PH,12.2188,125.4808,80.98,87,77,10.29,broken clouds
407,Conde,BR,-7.2597,-34.9075,78.26,78,0,5.75,clear sky
408,Guanica,PR,17.9716,-66.908,80.06,72,21,6.98,few clouds
409,Coihaique,CL,-45.5752,-72.0662,59.61,62,75,3.44,broken clouds
410,Muravlenko,RU,63.7898,74.523,-10.12,87,76,9.53,broken clouds
411,Lady Frere,ZA,-31.7031,27.2329,57.0,89,90,2.04,overcast clouds
412,Lebanon,US,36.2081,-86.2911,44.96,58,100,0.0,overcast clouds
413,Rocha,UY,-34.4833,-54.3333,60.24,85,19,2.86,few clouds
414,Spirit River,CA,55.7833,-118.8361,21.63,87,1,5.68,clear sky
415,Kathmandu,NP,27.7167,85.3167,50.22,93,40,2.3,scattered clouds
416,Qui Nhon,VN,13.7667,109.2333,76.44,90,54,6.26,broken clouds
417,Aksha,RU,50.2814,113.2867,20.68,83,27,7.07,scattered clouds
418,Erdenet,MN,49.0333,104.0833,16.32,75,4,3.85,clear sky
419,Gat,IL,31.61,34.7642,64.4,100,32,4.59,scattered clouds
420,Gallup,US,35.5281,-108.7426,38.16,32,0,13.8,clear sky
421,Agutaya,PH,11.148,120.9417,83.21,79,100,20.2,overcast clouds
422,San Policarpo,PH,12.1791,125.5072,81.25,86,74,10.76,broken clouds
423,Berdigestyakh,RU,62.0989,126.6992,-17.21,90,83,9.26,broken clouds
424,Prince George,CA,53.9166,-122.753,32.61,85,0,9.22,clear sky
425,Canas,CR,10.4294,-85.0931,75.56,87,53,7.52,broken clouds
426,Fort Nelson,CA,58.8053,-122.7002,22.59,50,40,2.3,scattered clouds
427,Constantine,DZ,36.365,6.6147,60.21,77,75,5.75,light rain
428,Ihosy,MG,-22.4,46.1167,66.13,89,63,3.89,broken clouds
429,Flinders,AU,-34.5833,150.8552,64.18,50,8,4.0,clear sky
430,Irituia,BR,-1.7711,-47.4381,77.09,80,79,3.22,broken clouds
431,Whitehorse,CA,60.7161,-135.0538,21.02,91,75,5.75,broken clouds
432,Lompoc,US,34.6391,-120.4579,75.02,26,0,11.5,clear sky
433,Nemuro,JP,43.3236,145.575,41.85,64,66,10.71,broken clouds
434,Maloy,NO,61.9353,5.1136,47.93,40,0,3.42,clear sky
435,Am Timan,TD,11.0297,20.2827,74.43,28,21,5.64,few clouds
436,Rawson,AR,-43.3002,-65.1023,61.21,54,0,17.25,clear sky
437,Amahai,ID,-3.3333,128.9167,84.42,70,100,1.43,overcast clouds
438,Natal,BR,-5.795,-35.2094,79.45,73,20,11.5,few clouds
439,Atar,MR,20.5169,-13.0499,77.07,21,6,9.51,clear sky
440,Fraserburgh,GB,57.6874,-2.0184,49.48,91,84,27.47,light rain
441,Knysna,ZA,-34.0363,23.0471,62.08,76,99,3.47,overcast clouds
442,Mandalgovi,MN,45.7625,106.2708,28.04,35,19,6.93,few clouds
443,Nioro,GM,13.35,-15.75,78.1,62,84,5.06,broken clouds
444,Oroquieta,PH,8.4858,123.8044,80.82,84,98,4.52,overcast clouds
445,Udachnyy,RU,66.4167,112.4,-19.55,68,98,0.69,overcast clouds
446,Arman,RU,59.7,150.1667,-4.99,89,97,9.01,overcast clouds
447,Evensk,RU,61.95,159.2333,2.62,91,97,6.4,overcast clouds
448,Kaputa,ZM,-8.4689,29.6619,70.14,83,97,1.36,overcast clouds
449,Lumut,MY,4.2323,100.6298,75.22,100,40,0.0,scattered clouds
450,Biltine,TD,14.5333,20.9167,70.83,27,41,7.74,scattered clouds
451,Laje,BR,-10.1833,-40.9667,79.21,58,78,4.52,broken clouds
452,Muros,ES,42.7762,-9.0603,62.1,80,100,14.14,overcast clouds
453,Darasun,RU,51.6667,114.0,15.89,92,75,5.26,broken clouds
454,Sao Gabriel Da Cachoeira,BR,-0.1303,-67.0892,74.12,97,94,1.1,overcast clouds
455,Alyangula,AU,-13.8483,136.4192,88.83,55,89,3.15,overcast clouds
456,Utete,TZ,-7.986,38.758,74.61,88,55,1.74,broken clouds
457,Puerto Escondido,MX,15.85,-97.0667,85.03,61,40,3.44,scattered clouds
458,Vysokogornyy,RU,50.1167,139.15,16.2,89,97,2.8,overcast clouds
459,San Quintin,MX,30.4833,-115.95,65.46,41,0,7.29,clear sky
460,Teahupoo,PF,-17.8333,-149.2667,78.76,81,93,7.27,overcast clouds
461,Sabzevar,IR,36.2126,57.6819,45.68,57,20,9.22,few clouds
462,Mala,PE,-12.6581,-76.6308,65.8,85,98,7.54,overcast clouds
463,Bereda,ES,43.2686,-7.5406,56.14,97,91,9.4,overcast clouds
464,Kjollefjord,NO,70.9457,27.3465,42.62,39,52,11.5,broken clouds
465,Yarega,RU,63.4354,53.5765,-12.44,100,27,2.98,scattered clouds
466,Bairiki,KI,1.3292,172.9752,87.8,62,40,12.66,scattered clouds
467,Grand Gaube,MU,-20.0064,57.6608,68.4,70,1,5.01,clear sky
468,Altay,CN,47.8667,88.1167,30.06,91,100,14.23,snow
469,Sungaipenuh,ID,-2.0833,101.3833,63.18,98,100,3.31,overcast clouds
470,Alekseyevsk,RU,57.8406,108.3492,31.26,88,100,11.5,overcast clouds
471,Nacala,MZ,-14.5428,40.6728,75.38,86,95,4.97,light rain
472,Linjiang,CN,41.8069,126.9078,34.92,56,19,1.97,few clouds
473,Guane,CU,22.2025,-84.0875,76.06,82,40,5.08,scattered clouds
474,Lenoir,US,35.2335,-77.6497,53.73,71,0,3.44,clear sky
475,Kavaratti,IN,10.5669,72.642,81.12,72,10,2.44,clear sky
476,Trairi,BR,-3.2778,-39.2689,78.78,70,8,11.86,clear sky
477,Kidal,ML,18.4411,1.4078,70.74,16,88,7.94,overcast clouds
478,Boda,CF,4.3189,17.4695,71.85,56,100,1.01,overcast clouds
479,Traverse City,US,44.7631,-85.6206,32.2,85,100,9.22,overcast clouds
480,Wanaka,NZ,-44.7,169.15,58.05,83,100,2.08,overcast clouds
481,Bonthe,SL,7.5264,-12.505,77.83,80,60,0.96,broken clouds
482,Lufilufi,WS,-13.8745,-171.5986,85.78,73,27,10.89,scattered clouds
483,Moron,AR,-34.6534,-58.6198,85.05,46,10,5.55,clear sky
484,Port Macquarie,AU,-31.4333,152.9167,67.89,48,7,15.88,clear sky
485,Husavik,IS,66.0449,-17.3389,43.99,78,100,16.89,overcast clouds
486,Tuim,RU,54.3417,89.9261,24.82,73,93,20.67,overcast clouds
487,Ponta Delgada,PT,37.7333,-25.6667,64.51,94,75,2.3,light intensity shower rain
488,Camopi,GF,3.1655,-52.3158,75.07,82,100,4.03,overcast clouds
489,Stornoway,GB,58.2093,-6.3865,48.16,76,44,6.91,scattered clouds
490,Keuruu,FI,62.2667,24.7,29.8,95,25,3.87,scattered clouds
491,Bendigo,AU,-36.7667,144.2833,55.63,64,93,3.0,overcast clouds
492,Vicuna,CL,-30.0319,-70.7081,77.77,60,11,2.3,few clouds
493,Nago,JP,26.5881,127.9761,75.63,77,97,14.05,overcast clouds
494,Katete,UG,-0.7818,29.7544,61.84,97,98,2.17,light rain
495,Waitati,NZ,-45.75,170.5667,55.8,99,100,3.56,overcast clouds
496,Eyl,SO,7.9803,49.8164,76.6,74,10,11.23,clear sky
497,Pasighat,IN,28.0667,95.3333,59.02,63,2,2.91,clear sky
498,Tanabe,JP,33.7333,135.3667,56.41,58,75,5.75,broken clouds
499,Coquimbo,CL,-29.9533,-71.3436,61.23,85,23,2.48,few clouds
500,Kathu,TH,7.9178,98.3332,84.74,88,100,1.41,overcast clouds
501,Namibe,AO,-15.1961,12.1522,68.81,78,56,7.54,broken clouds
502,Dzaoudzi,YT,-12.7887,45.2699,76.89,83,20,2.3,few clouds
503,Zabol,AF,32.25,67.25,39.29,52,0,5.57,clear sky
504,Julio De Castilhos,BR,-29.2269,-53.6817,65.19,56,0,3.85,clear sky
505,White Rock,CA,49.0164,-122.8026,50.0,87,96,1.99,overcast clouds
506,Cidreira,BR,-30.1811,-50.2056,67.26,61,0,4.38,clear sky
507,Alofi,NU,-19.0595,-169.9187,82.29,78,59,8.05,broken clouds
508,Bonaventure,CA,48.0457,-65.4926,32.58,100,100,11.5,snow
509,Warrington,GB,53.3925,-2.5802,49.86,93,75,10.36,light rain
510,Trincomalee,LK,8.5711,81.2335,78.35,66,98,8.57,overcast clouds
511,Acapulco,MX,16.8634,-99.8901,84.02,74,75,4.61,broken clouds
512,Bentiu,SS,9.2333,29.8333,74.23,36,55,5.44,broken clouds
513,Shirokiy,RU,49.758,129.523,10.74,98,79,3.76,broken clouds
514,Kintinku,TZ,-5.8833,35.2333,75.4,54,82,5.35,broken clouds
515,Illescas,ES,40.1221,-3.847,58.6,92,100,16.8,overcast clouds
516,Gambela,ET,8.25,34.5833,72.25,69,19,2.59,few clouds
517,Alta Floresta,BR,-9.8756,-56.0861,72.01,94,97,0.96,overcast clouds
518,Manggar,ID,-2.8833,108.2667,81.21,83,72,9.24,broken clouds
519,Havoysund,NO,70.9963,24.6622,39.43,63,39,13.65,scattered clouds
520,Elbistan,TR,38.2059,37.1983,45.23,82,93,1.66,overcast clouds
521,Kinablangan,PH,7.6947,126.5503,76.19,91,100,2.59,overcast clouds
522,Sirnak,TR,37.5228,42.4594,41.07,84,100,3.24,overcast clouds
523,Yeppoon,AU,-23.1333,150.7333,78.58,31,83,7.65,broken clouds
524,Arcachon,FR,44.5875,-1.0519,62.65,67,100,17.27,overcast clouds
525,Yumen,CN,40.2833,97.2,28.18,34,0,5.57,clear sky
526,Saint John,CA,45.2727,-66.0677,46.4,100,100,25.32,mist
527,Sulangan,PH,11.1373,123.7228,82.53,78,69,11.32,broken clouds
528,Ibicarai,BR,-14.865,-39.5875,71.38,99,100,2.26,light rain
529,Kashi,CN,39.4547,75.9797,47.41,19,65,6.71,broken clouds
530,Roblin,CA,51.23,-101.3565,13.82,90,100,14.88,overcast clouds
531,Pangnirtung,CA,66.1451,-65.7125,-1.88,82,75,3.09,broken clouds
532,Shingu,JP,33.7333,135.9833,58.17,60,57,4.9,broken clouds
533,Kasongo-Lunda,CD,-6.4667,16.8167,69.67,91,100,1.92,overcast clouds
534,Artyom,AZ,40.4723,50.333,53.74,85,97,21.88,overcast clouds
535,Homer,US,59.6425,-151.5483,37.29,87,0,3.44,clear sky
536,Westport,US,41.1415,-73.3579,46.74,71,75,10.36,broken clouds
537,Sinnamary,GF,5.3833,-52.95,78.84,83,100,10.04,overcast clouds
538,Andenes,NO,69.3143,16.1194,33.78,80,14,12.66,few clouds
539,Miedzychod,PL,52.5988,15.897,39.38,75,94,12.82,overcast clouds
540,Haysville,US,37.5645,-97.3523,36.12,49,0,13.8,clear sky
541,Fontaine,FR,45.1984,5.6827,57.47,76,68,5.01,broken clouds
542,Kota,IN,25.1833,75.8333,63.32,36,0,1.25,clear sky
543,Linxia,CN,35.6003,103.2064,37.08,66,40,1.83,scattered clouds
544,Mortka,RU,59.3322,66.0214,-13.27,98,13,1.97,few clouds
545,Najran,SA,17.4924,44.1277,61.45,31,1,0.94,clear sky
546,Markova,UA,48.6758,24.4138,43.12,96,100,2.82,overcast clouds
547,Tafo,GH,6.7345,-1.6127,68.36,64,21,3.96,few clouds
548,Soto La Marina,MX,23.7667,-98.2167,53.78,61,100,9.98,overcast clouds
549,Altos,BR,-5.0381,-42.46,82.71,39,30,6.67,scattered clouds
550,Bahia Blanca,AR,-38.7196,-62.2724,66.29,66,13,1.01,few clouds
551,Kurilsk,RU,45.2333,147.8833,38.26,62,83,20.76,broken clouds
552,Carutapera,BR,-1.195,-46.02,78.19,75,58,7.56,broken clouds
553,Kununurra,AU,-15.7667,128.7333,78.78,83,75,1.14,broken clouds
554,Foindu,SL,7.4108,-11.5422,72.86,94,40,0.56,scattered clouds
555,Matara,LK,5.9485,80.5353,74.89,90,91,5.59,overcast clouds
556,Saint Simons,US,31.1352,-81.3901,62.64,65,0,6.91,clear sky
557,Gazojak,TM,41.1875,61.4036,36.28,57,49,11.68,scattered clouds
558,Freeport,US,40.6576,-73.5832,47.17,64,100,17.27,overcast clouds
559,Ponorogo,ID,-7.8685,111.462,80.55,81,81,1.88,broken clouds
560,Pankrushikha,RU,53.8319,80.3406,19.17,90,100,15.75,overcast clouds
561,Novikovo,RU,51.1537,37.8879,30.83,96,100,10.54,snow
562,Upington,ZA,-28.4478,21.2561,62.98,19,45,4.61,scattered clouds
563,Warrnambool,AU,-38.3833,142.4833,56.52,66,26,8.61,scattered clouds
564,Dawei,MM,14.0833,98.2,74.98,91,100,4.14,overcast clouds
565,Mitu,CO,1.1983,-70.1733,73.22,98,93,2.06,light rain
566,Kozhanka,UA,49.9793,29.7381,34.41,99,100,10.07,light snow
567,Cheyenne,US,41.14,-104.8203,32.32,52,0,17.27,clear sky
568,Uarini,BR,-2.99,-65.1083,76.19,90,49,1.95,scattered clouds
569,Vila Velha,BR,-20.3297,-40.2925,71.55,97,75,3.44,broken clouds
570,Marrakesh,MA,31.6315,-8.0083,64.47,32,0,3.44,clear sky
571,Luderitz,NA,-26.6481,15.1594,60.13,81,7,12.17,clear sky
572,Harnosand,SE,62.6323,17.9379,27.0,71,9,4.65,clear sky
573,Mildura,AU,-34.2,142.15,59.27,42,0,8.5,clear sky
574,Gaoyou,CN,32.7858,119.4278,55.38,87,100,9.98,overcast clouds
575,Maanshan,CN,31.6957,118.4983,55.45,91,100,6.44,overcast clouds
576,Ulaanbaatar,MN,47.9077,106.8832,-0.27,85,0,4.47,clear sky
577,Suzdal,RU,56.4281,40.4414,25.09,72,84,2.53,broken clouds
578,Villa Carlos Paz,AR,-31.4241,-64.4978,85.89,28,3,15.99,clear sky
579,Ilhabela,BR,-23.7781,-45.3581,69.71,78,25,4.23,scattered clouds
580,Eatonton,US,33.3268,-83.3885,49.35,62,100,8.88,overcast clouds
581,Quatre Cocos,MU,-20.2078,57.7625,68.11,66,0,5.53,clear sky
582,Vao,NC,-22.6667,167.4833,76.28,80,98,12.97,overcast clouds
583,Olafsvik,IS,64.8945,-23.7142,44.26,72,77,21.68,broken clouds
584,Codrington,AU,-38.2667,141.9667,57.13,67,66,7.81,broken clouds
585,Pancevo,RS,44.8708,20.6403,53.8,95,100,6.44,light rain
586,Vigrestad,NO,58.5667,5.7,47.59,74,79,35.46,broken clouds
587,Ulma,DE,48.3984,9.9916,43.36,94,97,3.89,light rain
588,Butte,US,39.6499,-121.5677,68.22,36,0,6.91,clear sky
589,Corner Brook,CA,48.9667,-57.9484,28.56,91,100,3.15,overcast clouds
590,Ninotsminda,GE,41.2646,43.5916,31.86,92,99,3.87,overcast clouds
591,Barber,CW,12.2833,-69.0667,82.38,78,40,13.8,scattered clouds
592,Mozhaysk,RU,55.5019,36.0272,22.39,89,31,2.93,scattered clouds
593,Nanakuli,US,21.3906,-158.1547,84.15,48,100,17.27,overcast clouds
594,Novoagansk,RU,61.9449,76.6625,-14.93,94,26,4.32,scattered clouds
595,Ukhta,RU,63.5671,53.6835,-12.64,100,23,2.98,few clouds
596,Nalut,LY,30.3333,10.85,60.4,29,0,10.8,clear sky
597,Mascote,BR,-15.5631,-39.3025,71.83,99,100,2.53,moderate rain
598,Tomatlan,MX,19.9333,-105.25,78.4,71,0,2.98,clear sky
599,Hohhot,CN,40.8106,111.6522,21.49,86,0,4.47,clear sky
600,Tiznit,MA,29.5833,-9.5,63.63,28,61,1.81,broken clouds
601,Lexington Park,US,38.2668,-76.4538,49.68,61,40,16.11,scattered clouds
602,Karlstad,SE,59.3793,13.5036,32.56,67,75,9.22,broken clouds
603,Nuristan,AF,35.3,70.8333,9.27,59,7,15.66,clear sky
604,Doka,SD,13.5167,35.7667,76.05,37,2,6.24,clear sky
605,Richards Bay,ZA,-28.783,32.0377,71.04,92,78,6.22,broken clouds
606,Kloulklubed,PW,7.0419,134.2556,75.7,77,100,17.18,light rain
607,Helena,US,46.5927,-112.0361,32.25,74,75,1.99,broken clouds
608,Antsohihy,MG,-14.8796,47.9875,72.66,85,97,2.06,overcast clouds
609,Anadyr,RU,64.75,177.4833,34.3,86,0,4.47,clear sky
610,Itaituba,BR,-4.2761,-55.9836,81.16,71,97,2.04,overcast clouds
611,Kushiro,JP,42.975,144.3747,38.35,81,40,6.91,scattered clouds
612,Mackay,AU,-21.15,149.2,85.68,46,61,18.66,broken clouds
613,Skara,SE,58.3866,13.4384,36.75,73,100,9.6,overcast clouds
614,Kailua,US,21.4022,-157.7394,84.18,59,75,12.66,broken clouds
615,Porkhov,RU,57.765,29.5561,31.42,74,100,3.62,overcast clouds
616,Fengzhen,CN,40.4394,113.1536,34.7,68,1,1.95,clear sky
617,Kangaatsiaq,GL,68.3065,-53.4641,21.15,89,100,1.77,overcast clouds
618,Hauterive,FR,46.0901,3.4459,57.96,73,99,14.16,overcast clouds
619,Amga,RU,60.8953,131.9608,-39.51,100,54,2.48,broken clouds
620,Achacachi,BO,-16.05,-68.6833,44.83,71,44,9.93,scattered clouds
621,Lardos,GR,36.0942,28.0157,62.42,73,7,8.3,clear sky
622,Palana,RU,59.1167,159.9667,21.0,92,100,13.87,snow
623,Ancud,CL,-41.8697,-73.8203,53.65,92,32,4.18,scattered clouds
624,Havelock,US,34.8791,-76.9013,55.94,87,0,3.44,clear sky
625,Changli,CN,39.7042,119.1506,45.21,62,0,4.07,clear sky
626,Cuiluan,CN,47.72,128.648,21.74,76,7,1.72,clear sky
627,Freetown,SL,8.484,-13.2299,78.46,80,77,4.16,broken clouds
628,Kysyl-Syr,RU,63.8986,122.7617,-15.18,91,100,13.18,overcast clouds
629,Muzaffarabad,PK,34.37,73.4711,48.85,63,0,6.22,clear sky
630,Peniche,PT,39.3558,-9.3811,65.1,94,100,19.22,overcast clouds
631,Yangambi,CD,0.8102,24.4336,67.19,99,97,2.75,light rain
632,Erenhot,CN,43.6475,111.9767,28.9,47,1,8.48,clear sky
633,Ostrovnoy,RU,68.0531,39.5131,29.97,89,91,7.81,overcast clouds
634,Poum,NC,-20.2333,164.0167,79.41,76,96,4.94,overcast clouds
635,Sisimiut,GL,66.9395,-53.6735,22.71,90,100,21.05,light snow
636,Teya,RU,60.3778,92.6267,-1.73,99,99,2.75,overcast clouds
637,Ozernovskiy,RU,51.5,156.5167,32.72,63,48,7.92,scattered clouds
638,Neiafu,TO,-18.65,-173.9833,81.28,89,40,2.3,scattered clouds
639,San Andres,CO,12.5847,-81.7006,84.22,79,40,12.66,scattered clouds
640,Sorochinsk,RU,52.4338,53.1583,26.44,94,100,9.01,overcast clouds
641,Russell,US,32.3502,-85.1999,49.6,53,0,10.36,clear sky
642,Lake Cowichan,CA,48.825,-124.0546,40.32,68,18,1.79,few clouds
643,Liepaja,LV,56.5419,21.0367,33.78,75,100,10.36,overcast clouds
644,Haines Junction,CA,60.7522,-137.5108,17.55,86,89,0.0,overcast clouds
645,Verkhnevilyuysk,RU,63.4453,120.3167,0.0,96,100,7.18,light snow
646,Seymchan,RU,62.8833,152.4333,-19.39,100,99,1.99,overcast clouds
647,Ciudad Ojeda,VE,10.1964,-71.3082,79.9,86,95,5.7,overcast clouds
648,Batangafo,CF,7.3008,18.2833,72.34,37,80,1.81,broken clouds
649,Mitsamiouli,KM,-11.3847,43.2844,77.88,79,66,9.17,broken clouds
650,Csengele,HU,46.5423,19.8636,49.01,99,100,7.87,overcast clouds
651,Suleja,NG,9.1758,7.1808,72.59,42,9,3.33,clear sky
652,Mporokoso,ZM,-9.3727,30.125,61.41,94,69,3.91,light rain
653,Vanavara,RU,60.34,102.2797,15.51,96,100,3.96,light snow
654,Churapcha,RU,62.0025,132.4325,-37.48,99,47,5.44,scattered clouds
655,Vostok,RU,46.4856,135.8833,20.8,81,79,2.68,broken clouds
656,Onega,RU,63.9061,38.1404,30.6,85,66,6.08,broken clouds
657,Jasper,US,37.2001,-94.3502,33.85,52,0,12.66,clear sky
658,Ngunguru,NZ,-35.6167,174.5,68.81,71,63,10.65,broken clouds
659,Eenhana,NA,-17.4667,16.3333,78.71,41,88,8.59,overcast clouds
660,Vila Franca Do Campo,PT,37.7167,-25.4333,64.2,90,84,6.29,light rain
661,Sarkand,KZ,45.41,79.9186,21.78,81,98,2.57,overcast clouds
662,Leh,IN,34.1667,77.5833,17.42,88,95,0.83,overcast clouds
663,Winslow,US,35.0242,-110.6974,48.38,14,0,8.05,clear sky
664,Lakatoro,VU,-16.0999,167.4164,84.45,68,10,5.7,clear sky
665,Sovetskaya,RU,44.7769,41.1722,44.35,51,100,5.03,overcast clouds
666,Resistencia,AR,-27.4606,-58.9839,80.65,41,1,5.75,clear sky
667,Rusape,ZW,-18.5278,32.1284,61.56,80,0,1.25,clear sky
668,Maple Creek,CA,49.9168,-109.4848,24.85,80,100,19.57,overcast clouds
669,Baykalovo,RU,57.3981,63.7684,-7.83,99,83,3.13,broken clouds
670,Fenoarivo,MG,-18.933,47.4354,62.67,100,75,4.61,moderate rain
671,Manono,CD,-7.3,27.4167,66.51,94,99,2.48,overcast clouds
672,Manavalakurichi,IN,8.1333,77.3,77.32,82,100,5.79,overcast clouds
673,Manokwari,ID,-0.8667,134.0833,77.25,90,100,5.99,overcast clouds
674,Kaeo,NZ,-35.1,173.7833,74.32,87,75,7.31,light rain
675,Vaitape,PF,-16.5167,-151.75,79.48,75,100,3.65,overcast clouds
676,Lake City,US,30.1897,-82.6393,60.62,72,0,9.22,clear sky
677,Okhotsk,RU,59.3833,143.3,-4.29,78,11,16.04,few clouds
